$GPRMC,133130.672,A,2147.400,S,04810.200,W,37.8,190.0,110222,,,A*5C
$GPRMC,133131.672,A,2147.409,S,04810.205,W,37.8,206.2,110222,,,A*5F
$GPRMC,133132.672,A,2147.417,S,04810.213,W,37.8,222.4,110222,,,A*54
$GPRMC,133133.672,A,2147.426,S,04810.219,W,37.8,214.5,110222,,,A*59
$GPRMC,133134.672,A,2147.434,S,04810.226,W,37.8,220.8,110222,,,A*5B
$GPRMC,133135.672,A,2147.441,S,04810.235,W,37.8,228.3,110222,,,A*59
$GPRMC,133136.672,A,2147.448,S,04810.243,W,37.8,227.9,110222,,,A*57
$GPRMC,133137.672,A,2147.456,S,04810.250,W,37.8,218.8,110222,,,A*56
$GPRMC,133138.672,A,2147.465,S,04810.256,W,37.8,210.7,110222,,,A*58
$GPRMC,133139.672,A,2147.475,S,04810.259,W,37.8,196.6,110222,,,A*5B
$GPRMC,133140.672,A,2147.484,S,04810.266,W,37.8,217.3,110222,,,A*58
$GPRMC,133141.672,A,2147.490,S,04810.275,W,37.8,236.2,110222,,,A*5C
$GPRMC,133142.672,A,2147.493,S,04810.286,W,37.8,252.4,110222,,,A*54
$GPRMC,133143.672,A,2147.496,S,04810.297,W,37.8,253.6,110222,,,A*53
$GPRMC,133144.672,A,2147.498,S,04810.308,W,37.8,259.1,110222,,,A*50
$GPRMC,133145.672,A,2147.498,S,04810.319,W,37.8,269.3,110222,,,A*50
$GPRMC,133146.672,A,2147.500,S,04810.330,W,37.8,257.6,110222,,,A*50
$GPRMC,133147.672,A,2147.503,S,04810.341,W,37.8,253.2,110222,,,A*54
$GPRMC,133148.672,A,2147.508,S,04810.351,W,37.8,242.9,110222,,,A*5A
$GPRMC,133149.672,A,2147.511,S,04810.362,W,37.8,254.6,110222,,,A*5B
$GPRMC,133150.672,A,2147.510,S,04810.373,W,37.8,273.8,110222,,,A*59
$GPRMC,133151.672,A,2147.512,S,04810.385,W,37.8,262.0,110222,,,A*5B
$GPRMC,133152.672,A,2147.516,S,04810.395,W,37.8,244.2,110222,,,A*5B
$GPRMC,133153.672,A,2147.520,S,04810.405,W,37.8,249.3,110222,,,A*5D
$GPRMC,133154.672,A,2147.521,S,04810.416,W,37.8,266.0,110222,,,A*57
$GPRMC,133155.672,A,2147.522,S,04810.428,W,37.8,264.4,110222,,,A*5E
$GPRMC,133156.672,A,2147.519,S,04810.439,W,37.8,284.6,110222,,,A*59
$GPRMC,133157.672,A,2147.519,S,04810.450,W,37.8,271.2,110222,,,A*59
$GPRMC,133158.672,A,2147.518,S,04810.461,W,37.8,273.6,110222,,,A*53
$GPRMC,133159.672,A,2147.517,S,04810.472,W,37.8,273.9,110222,,,A*50
$GPRMC,133200.672,A,2147.516,S,04810.484,W,37.8,278.7,110222,,,A*52
$GPRMC,133201.672,A,2147.515,S,04810.495,W,37.8,276.6,110222,,,A*5F
$GPRMC,133202.672,A,2147.517,S,04810.506,W,37.8,254.3,110222,,,A*50
$GPRMC,133203.672,A,2147.521,S,04810.516,W,37.8,248.8,110222,,,A*53
$GPRMC,133204.672,A,2147.526,S,04810.526,W,37.8,245.0,110222,,,A*55
$GPRMC,133205.672,A,2147.533,S,04810.534,W,37.8,225.3,110222,,,A*56
$GPRMC,133206.672,A,2147.539,S,04810.544,W,37.8,237.3,110222,,,A*5B
$GPRMC,133207.672,A,2147.547,S,04810.551,W,37.8,222.4,110222,,,A*54
$GPRMC,133208.672,A,2147.552,S,04810.561,W,37.8,236.6,110222,,,A*5B
$GPRMC,133209.672,A,2147.558,S,04810.570,W,37.8,237.4,110222,,,A*53
$GPRMC,133210.672,A,2147.566,S,04810.577,W,37.8,217.9,110222,,,A*5E
$GPRMC,133211.672,A,2147.573,S,04810.586,W,37.8,231.6,110222,,,A*5E
$GPRMC,133212.672,A,2147.576,S,04810.597,W,37.8,250.8,110222,,,A*51
$GPRMC,133213.672,A,2147.580,S,04810.607,W,37.8,249.1,110222,,,A*52
$GPRMC,133214.672,A,2147.583,S,04810.618,W,37.8,255.3,110222,,,A*57
$GPRMC,133215.672,A,2147.587,S,04810.629,W,37.8,248.1,110222,,,A*5E
$GPRMC,133216.672,A,2147.593,S,04810.637,W,37.8,230.5,110222,,,A*5C
$GPRMC,133217.672,A,2147.601,S,04810.645,W,37.8,224.6,110222,,,A*56
$GPRMC,133218.672,A,2147.609,S,04810.653,W,37.8,220.2,110222,,,A*56
$GPRMC,133219.672,A,2147.619,S,04810.657,W,37.8,200.4,110222,,,A*56
$GPRMC,133220.672,A,2147.629,S,04810.659,W,37.8,192.2,110222,,,A*5F
$GPRMC,133221.672,A,2147.640,S,04810.658,W,37.8,173.5,110222,,,A*58
$GPRMC,133222.672,A,2147.649,S,04810.652,W,37.8,152.3,110222,,,A*5D
$GPRMC,133223.672,A,2147.659,S,04810.649,W,37.8,162.1,110222,,,A*56
$GPRMC,133224.672,A,2147.667,S,04810.642,W,37.8,142.0,110222,,,A*54
$GPRMC,133225.672,A,2147.677,S,04810.639,W,37.8,163.1,110222,,,A*5A
$GPRMC,133226.672,A,2147.686,S,04810.633,W,37.8,149.0,110222,,,A*54
$GPRMC,133227.672,A,2147.696,S,04810.630,W,37.8,164.1,110222,,,A*59
$GPRMC,133228.672,A,2147.707,S,04810.627,W,37.8,167.5,110222,,,A*5E
$GPRMC,133229.672,A,2147.717,S,04810.628,W,37.8,183.5,110222,,,A*5B
$GPRMC,133230.672,A,2147.728,S,04810.627,W,37.8,173.9,110222,,,A*53
$GPRMC,133231.672,A,2147.738,S,04810.624,W,37.8,167.6,110222,,,A*5A
$GPRMC,133232.672,A,2147.748,S,04810.622,W,37.8,169.2,110222,,,A*52
$GPRMC,133233.672,A,2147.759,S,04810.621,W,37.8,174.4,110222,,,A*5A
$GPRMC,133234.672,A,2147.769,S,04810.619,W,37.8,168.6,110222,,,A*5A
$GPRMC,133235.672,A,2147.779,S,04810.615,W,37.8,161.1,110222,,,A*58
$GPRMC,133236.672,A,2147.788,S,04810.609,W,37.8,147.4,110222,,,A*59
$GPRMC,133237.672,A,2147.798,S,04810.606,W,37.8,162.3,110222,,,A*56
$GPRMC,133238.672,A,2147.808,S,04810.601,W,37.8,156.5,110222,,,A*59
$GPRMC,133239.672,A,2147.816,S,04810.594,W,37.8,138.0,110222,,,A*55
$GPRMC,133240.672,A,2147.821,S,04810.584,W,37.8,122.3,110222,,,A*56
$GPRMC,133241.672,A,2147.827,S,04810.575,W,37.8,120.2,110222,,,A*5C
$GPRMC,133242.672,A,2147.834,S,04810.566,W,37.8,132.5,110222,,,A*5B
$GPRMC,133243.672,A,2147.842,S,04810.559,W,37.8,142.7,110222,,,A*52
$GPRMC,133244.672,A,2147.851,S,04810.553,W,37.8,145.4,110222,,,A*59
$GPRMC,133245.672,A,2147.859,S,04810.545,W,37.8,137.9,110222,,,A*5F
$GPRMC,133246.672,A,2147.868,S,04810.541,W,37.8,157.2,110222,,,A*57
$GPRMC,133247.672,A,2147.876,S,04810.534,W,37.8,139.9,110222,,,A*58
$GPRMC,133248.672,A,2147.884,S,04810.526,W,37.8,134.8,110222,,,A*55
$GPRMC,133249.672,A,2147.890,S,04810.517,W,37.8,124.9,110222,,,A*53
$GPRMC,133250.672,A,2147.893,S,04810.506,W,37.8,110.3,110222,,,A*55
$GPRMC,133251.672,A,2147.898,S,04810.496,W,37.8,116.4,110222,,,A*56
$GPRMC,133252.672,A,2147.904,S,04810.487,W,37.8,125.5,110222,,,A*50
$GPRMC,133253.672,A,2147.911,S,04810.478,W,37.8,133.0,110222,,,A*57
$GPRMC,133254.672,A,2147.915,S,04810.468,W,37.8,112.9,110222,,,A*5F
$GPRMC,133255.672,A,2147.919,S,04810.457,W,37.8,110.4,110222,,,A*51
$GPRMC,133256.672,A,2147.919,S,04810.446,W,37.8,88.0,110222,,,A*66
$GPRMC,133257.672,A,2147.920,S,04810.435,W,37.8,96.8,110222,,,A*6E
$GPRMC,133258.672,A,2147.923,S,04810.424,W,37.8,105.6,110222,,,A*57
$GPRMC,133259.672,A,2147.929,S,04810.415,W,37.8,125.0,110222,,,A*5A
$GPRMC,133300.672,A,2147.936,S,04810.407,W,37.8,132.3,110222,,,A*5F
$GPRMC,133301.672,A,2147.942,S,04810.397,W,37.8,122.9,110222,,,A*58
$GPRMC,133302.672,A,2147.946,S,04810.387,W,37.8,113.1,110222,,,A*54
$GPRMC,133303.672,A,2147.953,S,04810.379,W,37.8,134.5,110222,,,A*51
$GPRMC,133304.672,A,2147.961,S,04810.371,W,37.8,135.8,110222,,,A*53
$GPRMC,133305.672,A,2147.970,S,04810.365,W,37.8,146.3,110222,,,A*58
$GPRMC,133306.672,A,2147.977,S,04810.357,W,37.8,138.4,110222,,,A*53
$GPRMC,133307.672,A,2147.986,S,04810.351,W,37.8,148.4,110222,,,A*5D
$GPRMC,133308.672,A,2147.996,S,04810.346,W,37.8,154.5,110222,,,A*59
$GPRMC,133309.672,A,2148.005,S,04810.340,W,37.8,146.8,110222,,,A*5C
